[
  {
    "id":"1",
    "name":"上海第二工业大学",
    "fullAddress":"上海市浦东新区金海路2360号",
    "city":"上海市",
    "district":"浦东新区",
    "address":"金海路2360号",
    "geohash":"31.27023483337564,121.65814931035392",
    "latitude":"31.27023483337564",
    "longitude":"121.65814931035392"
  },
  {
    "id":"2",
    "name":"上海第三工业大学",
    "address":"上海市浦东新区金海路2359号",
    "city":"上海市",
    "district":"浦东新区",
    "address":"金海路2359号",
    "geohash":"30.27023483337564,120.65814931035392",
    "latitude":"30.27023483337564",
    "longitude":"120.65814931035392"
  },
  {
    "id":"3",
    "name":"上海第四工业大学",
    "address":"上海市浦东新区金海路2358号",
    "city":"上海市",
    "district":"浦东新区",
    "address":"金海路2358号",
    "geohash":"29.27023483337564,119.65814931035392",
    "latitude":"29.27023483337564",
    "longitude":"119.65814931035392"
  },
  {
    "id":"4",
    "name":"山答学院",
    "address":"上海市浦东新区金海路2357号",
    "city":"上海市",
    "district":"浦东新区",
    "address":"金海路2357号",
    "geohash":"28.27023483337564,118.65814931035392",
    "latitude":"28.27023483337564",
    "longitude":"118.65814931035392"
  }
]
